[
  {
    "id": "1",
    "name": "Eric Matthews",
    "specialty": "Foot",
    "location":{
      "city": "Summit",
      "state": "NJ"
    }
  },
  {
    "id": "2",
    "name": "Dave Urban",
    "specialty": "Heart",
    "location":{
      "city": "Poconos",
      "state": "PA"
    }
  },
  {
    "id": "3",
    "name": "Shaggy Rogers",
    "specialty": "Back",
    "location":{
      "city": "New York",
      "state": "NY"
    }
  },
  {
    "id": "4",
    "name": "Geroge Lopez",
    "specialty": "Brain",
    "location":{
      "city": "Pittsburg",
      "state": "PA"
    }
  },
  {
    "id": "5",
    "name": "Lucille Ball",
    "specialty": "GE",
    "location":{
      "city": "Bayonne",
      "state": "NJ"
    }
  },
  {
    "id": "7",
    "name": "Peter Douglas",
    "specialty": "Eye",
    "location":{
      "city": "Orlando",
      "state": "FL"
    }
  },
  {
    "id": "8",
    "name": "Frank Kimmisky",
    "specialty": "Oral",
    "location":{
      "city": "Las Vegas",
      "state": "NV"
    }
  },
  {
    "id": "9",
    "name": "Arthur Shaw",
    "specialty": "Cancer",
    "location":{
      "city": "Dallas",
      "state": "TX"
    }
  },
  {
    "id": "10",
    "name": "Kristin Bell",
    "specialty": "Cardiovascular Disease",
    "location":{
      "city": "Seattle",
      "state": "WA"
    }
  },
  {
    "id": "11",
    "name": "Will Cohen",
    "specialty": "Dermatology",
    "location":{
      "city": "Atlanta",
      "state": "GA"
    }
  },
  {
    "id": "12",
    "name": "Bobby Smith",
    "specialty": "HIV",
    "location":{
      "city": "Boston",
      "state": "MA"
    }
  },
  {
    "id": "13",
    "name": "Alexis Fanco",
    "specialty": "Pediactrics",
    "location":{
      "city": "Chicago",
      "state": "IL"
    }
  },
  {
    "id": "14",
    "name": "Carlos Delgado",
    "specialty": "Maternal",
    "location":{
      "city": "Los Angeles",
      "state": "CA"
    }
  },
  {
    "id": "15",
    "name": "Andrew Phillips",
    "specialty": "Neurology",
    "location":{
      "city": "Miami",
      "state": "FL"
    }
  },
  {
    "id": "16",
    "name": "Phil Specter",
    "specialty": "Plastic Surgery",
    "location":{
      "city": "Beverly Hills",
      "state": "CA"
    }
  },
  {
    "id": "17",
    "name": "Wendy Rhoades",
    "specialty": "Psychiatry",
    "location":{
      "city": "Phoenix",
      "state": "AZ"
    }
  }
]
